{"type":"Topology","objects":{"subunits":{"type":"GeometryCollection","name":"MDV_subunits","crs":{"type":"name","properties":{"name":"urn:ogc:def:crs:OGC:1.3:CRS84"}},"geometries":[{"type":"MultiPolygon","properties":{"name":"Addu","fips":null,"scalerank":10,"country":"MDV","latitude":-0.624137,"longitude":73.1092,"type":"City","iso":"MV-01"},"id":"S","arcs":[[[0]],[[1]],[[2]],[[3]]]},{"type":"Polygon","properties":{"name":"Gnaviyani","fips":null,"scalerank":10,"country":"MDV","latitude":-0.28897,"longitude":73.4348,"type":"Atoll","iso":"MV-29"},"id":"Gn","arcs":[[4]]},{"type":"MultiPolygon","properties":{"name":"Gaafu Dhaalu","fips":null,"scalerank":10,"country":"MDV","latitude":0.22176,"longitude":73.106,"type":"Atoll","iso":"MV-28"},"id":"GDh","arcs":[[[5]]]},{"type":"MultiPolygon","properties":{"name":"Alifu Dhaalu","fips":null,"scalerank":10,"country":"MDV","latitude":3.77293,"longitude":72.9528,"type":"Atoll","iso":"MV-00"},"id":"ADh","arcs":[[[6]],[[7]]]},{"type":"MultiPolygon","properties":{"name":"Alifu Alifu","fips":null,"scalerank":10,"country":"MDV","latitude":4.26451,"longitude":72.9528,"type":"Atoll","iso":"MV-02"},"id":"AA","arcs":[[[8]]]},{"type":"MultiPolygon","properties":{"name":"Baa","fips":null,"scalerank":10,"country":"MDV","latitude":4.88218,"longitude":72.9751,"type":"Atoll","iso":"MV-20"},"id":"B","arcs":[[[9]]]},{"type":"MultiPolygon","properties":{"name":"Lhaviyani","fips":null,"scalerank":10,"country":"MDV","latitude":5.2748,"longitude":73.5816,"type":"Atoll","iso":"MV-03"},"id":"Lh","arcs":[[[10]],[[11]]]},{"type":"MultiPolygon","properties":{"name":"Laamu","fips":null,"scalerank":10,"country":"MDV","latitude":1.83216,"longitude":73.5114,"type":"Atoll","iso":"MV-05"},"id":"L","arcs":[[[12]],[[13]],[[14]],[[15]],[[16]],[[17]]]},{"type":"MultiPolygon","properties":{"name":"Thaa","fips":null,"scalerank":10,"country":"MDV","latitude":2.19286,"longitude":73.1252,"type":"Atoll","iso":"MV-08"},"id":"Th","arcs":[[[18]]]},{"type":"Polygon","properties":{"name":"Malé","fips":null,"scalerank":10,"country":"MDV","latitude":4.17219,"longitude":73.5188,"type":"Capital","iso":"MV-12"},"id":"Ma","arcs":[[19]]},{"type":"MultiPolygon","properties":{"name":"Noonu","fips":null,"scalerank":10,"country":"MDV","latitude":5.78713,"longitude":73.3837,"type":"Atoll","iso":"MV-25"},"id":"N","arcs":[[[20]],[[21]]]},{"type":"MultiPolygon","properties":{"name":"Haa Dhaalu","fips":null,"scalerank":10,"country":"MDV","latitude":6.62205,"longitude":73.0473,"type":"Atoll","iso":"MV-23"},"id":"HDh","arcs":[[[22]],[[23]]]},{"type":"MultiPolygon","properties":{"name":"Haa Alifu","fips":null,"scalerank":10,"country":"MDV","latitude":7.02774,"longitude":72.9797,"type":"Atoll","iso":"MV-07"},"id":"HA","arcs":[[[24]],[[25]],[[26]]]}]},"places":{"type":"GeometryCollection","name":"MDV_places","crs":{"type":"name","properties":{"name":"urn:ogc:def:crs:OGC:1.3:CRS84"}},"geometries":[{"type":"Point","properties":{"name":"Malé","scalerank":3,"subregion":null,"latitude":4.166708,"longitude":73.499948},"id":"Q9347","coordinates":[77134,62348]}]}},"arcs":[[[48606,223],[-716,-130],[-122,88],[838,42]],[[51965,808],[-1189,-221],[-45,131],[754,169],[480,-79]],[[52597,1282],[-198,-238],[-594,88],[68,204],[777,84],[-53,-138]],[[38627,1140],[1318,-223],[662,-311],[-700,0],[-1524,470],[-350,239],[1295,88],[-579,-102],[-122,-161]],[[70223,5194],[747,-117],[137,-148],[-869,137],[-15,128]],[[38437,11757],[830,-107],[-511,-42],[-319,149]],[[22798,54394],[-1569,-132],[777,135],[792,-3]],[[724,56639],[449,-104],[-716,-11],[267,115]],[[25480,65764],[-92,-208],[-838,13],[-350,109],[1280,86]],[[27567,71628],[-922,-192],[297,178],[625,14]],[[85062,76595],[-1006,-91],[-1203,15],[2209,76]],[[88428,78337],[671,-200],[-396,-216],[-442,349],[167,67]],[[63665,31807],[1013,-32],[-716,-72],[-297,104]],[[66963,32003],[175,-138],[-723,-11],[548,149]],[[71869,32265],[1028,-6],[-648,-76],[-380,82]],[[77993,32470],[-1767,-192],[761,136],[1006,56]],[[81268,33620],[-396,-270],[-746,-243],[1142,513]],[[82632,35897],[1668,-4],[-2217,-191],[549,195]],[[62659,40095],[1120,-329],[76,-174],[-419,-168],[-815,566],[38,105]],[[80625,63259],[626,-80],[-334,-314],[-1043,-372],[-1085,-154],[-1469,-118],[-2244,26],[-5215,263],[84,69],[7480,-48],[798,62],[1192,512],[1210,154]],[[71610,83754],[-1539,-129],[906,135],[633,-6]],[[65988,85415],[516,-160],[-1011,89],[495,71]],[[39419,94902],[-518,-130],[-350,82],[868,48]],[[44431,95885],[655,-79],[-2033,-575],[-1227,-135],[404,208],[1546,346],[655,235]],[[46503,96449],[1463,-31],[-1265,-89],[-198,120]],[[49535,97579],[-92,-179],[-853,-252],[-274,105],[366,239],[853,87]],[[48080,98256],[-358,-258],[-328,129],[686,129]]],"transform":{"scale":[0.000010683700587005871,0.0000779589501595018],"translate":[72.68482506600003,-0.688571872999944]}}